city;lat;lon;population;isCapital
"Tel Aviv";32.091225;34.781453;1318300;false
"Jerusalem";31.762542;35.220906;780517;true
"Gaza City";31.5225606;34.453593;515556;false
"Haifa"; 32.769212; 35.004862;272181;false
"Hebron";31.5325686;35.099826;250000;false
